[
    {
        "city": "london",
        "latitude": 51.5074,
        "longitude": 0.1278
    },
    {
        "city": "seoul",
        "latitude": 37.5665,
        "longitude": 126.9780
    },
    {
        "city": "new york city",
        "latitude": 40.7128,
        "longitude": -74.0060
    },
    {
        "city": "johannesburg",
        "latitude": -26.2041,
        "longitude": 28.0473
    },
    {
        "city": "santiago",
        "latitude": -33.4474,
        "longitude": -70.6736
    },
    {
        "city": "beijing",
        "latitude": 39.9138,
        "longitude": 116.3636
    },
    {
        "city": "hong kong",
        "latitude": 22.2855,
        "longitude": 114.1576
    },
    {
        "city": "caracas",
        "latitude": 10.5000,
        "longitude": -66.91666
    },
    {
        "city": "toronto",
        "latitude": 43.6539,
        "longitude": -79.3842
    },
    {
        "city": "moscow",
        "latitude": 55.7512,
        "longitude": 37.6184
    },
    {
        "city": "sao paulo",
        "latitude": -23.5337,
        "longitude": -46.6252
    },
    {
        "city": "los angeles",
        "latitude": 34.052235,
        "longitude": -118.243683
    },
    {
        "city": "istanbul",
        "latitude": 41.015137,
        "longitude": 28.979530
    },
    {
        "city": "berlin",
        "latitude": 52.5200,
        "longitude": 13.4050
    },
    {
        "city": "delhi",
        "latitude": 28.7041,
        "longitude": 77.1025
    },
    {
        "city": "nairobi",
        "latitude": -1.2931,
        "longitude": 36.8219
    },
    {
        "city": "cairo",
        "latitude": 30.0444,
        "longitude": 31.2357
    },
    {
        "city": "accra",
        "latitude": 5.6037,
        "longitude": -0.1870
    }
]
